[{"Name": "Estacion De Combustible Tropigas", "Address": "F375+RPJ, Avenida Roberto Pastoriza, Santo Domingo", "Rating": 4.2, "User Ratings Total": 188, "Types": "gas_station, point_of_interest, establishment", "Latitude": 18.4645914, "Longitude": -69.9407274}, {"Name": "Trovasa Hand Wash & Store", "Address": "Avenida 27 de Febrero 349, Santo Domingo", "Rating": 4.3, "User Ratings Total": 475, "Types": "gas_station, point_of_interest, establishment", "Latitude": 18.4595286, "Longitude": -69.94379359999999}, {"Name": "Sociedad de Empresas de Combustibles y Derivados", "Address": "Avenida 27 de Febrero No. 325, Santo Domingo", "Rating": "N/A", "User Ratings Total": "N/A", "Types": "gas_station, point_of_interest, establishment", "Latitude": 18.4599588, "Longitude": -69.94166849999999}, {"Name": "Cargador de vehiculos electricos", "Address": "F367+QH5, Santo Domingo", "Rating": 4.5, "User Ratings Total": 2, "Types": "gas_station, point_of_interest, establishment", "Latitude": 18.4618828, "Longitude": -69.93602179999999}, {"Name": "TotalEnergies On The Boulevard", "Address": "Avenida Winston Churchill 36, Santo Domingo", "Rating": 5, "User Ratings Total": 1, "Types": "gas_station, point_of_interest, establishment", "Latitude": 18.4642862, "Longitude": -69.9374881}, {"Name": "Total Energies", "Address": "Avenida Winston Churchill, Santo Domingo", "Rating": 4.4, "User Ratings Total": 253, "Types": "gas_station, point_of_interest, establishment", "Latitude": 18.4643116, "Longitude": -69.9375101}, {"Name": "Estaci\\u00f3n de Combustibles Total Millennium", "Address": "Avenida R\\u00f3mulo Betancourt 267, Santo Domingo", "Rating": 4.5, "User Ratings Total": 413, "Types": "gas_station, point_of_interest, establishment", "Latitude": 18.459537, "Longitude": -69.9361852}, {"Name": "Estaci\\u00f3n de GLP Tropig\\u00e1s", "Address": "Calle Paseo de los Locutores 53, Santo Domingo", "Rating": 4.4, "User Ratings Total": 1298, "Types": "gas_station, point_of_interest, establishment", "Latitude": 18.4642231, "Longitude": -69.9403312}, {"Name": "Axxon Bella Vista", "Address": "F359+82G, Avenida Enrique Jim\\u00e9nez Moya, Santo Domingo", "Rating": 4, "User Ratings Total": 493, "Types": "gas_station, point_of_interest, establishment", "Latitude": 18.4583124, "Longitude": -69.93240990000001}, {"Name": "VP Racing Store Santo Domingo", "Address": "Emile Boyrie de Moya, Santo Domingo", "Rating": 4.8, "User Ratings Total": 24, "Types": "gas_station, point_of_interest, establishment", "Latitude": 18.4597308, "Longitude": -69.9430734}, {"Name": "Presto Combustibles", "Address": "Avenida Sarasota 20, Santo Domingo", "Rating": "N/A", "User Ratings Total": "N/A", "Types": "gas_station, point_of_interest, establishment", "Latitude": 18.4603989, "Longitude": -69.92846650000001}, {"Name": "Esso Gas Station", "Address": "F399+Q6R, Avenida Roberto Pastoriza, Santo Domingo", "Rating": 4.3, "User Ratings Total": 568, "Types": "gas_station, point_of_interest, establishment", "Latitude": 18.4694981, "Longitude": -69.93198819999999}, {"Name": "Shell", "Address": "Avenida 27 de Febrero 349, Santo Domingo", "Rating": 4.5, "User Ratings Total": 2, "Types": "gas_station, car_wash, atm, finance, point_of_interest, establishment", "Latitude": 18.4593649, "Longitude": -69.9437177}, {"Name": "Estaci\\u00f3n de Gasolina Esso \\u2022 Jos\\u00e9 Contreras", "Address": "Avenida Jos\\u00e9 Contreras 141, Santo Domingo", "Rating": 4.2, "User Ratings Total": 320, "Types": "gas_station, point_of_interest, establishment", "Latitude": 18.4571269, "Longitude": -69.9290947}]